{
    "type": "FeatureCollection",
    "features": [{
            "type": "Feature",
            "properties": {
                "nombre": "Farmacia ALTHAUS",
                "direccion": "SARMIENTO 2737",
                "telefono": "(03496) 420300",
                "localidad": "Esperanza"
            },
            "geometry": {
                "type": "Point",
                "coordinates": [-60.92960715293884, -31.442968703558208]
            }
        }, {
            "type": "Feature",
            "properties": {
                "nombre": "Farmacia BARRIOS",
                "direccion": "S.IRIONDO 3043",
                "telefono": "(03496) 421567",
                "localidad": "Esperanza"
            },
            "geometry": {
                "type": "Point",
                "coordinates": [-60.927909314632416, -31.44074210965331]
            }
        },
        {
            "type": "Feature",
            "properties": {
                "nombre": "Farmacia BIANCHINI",
                "direccion": "AV.CÓRDOBA 2725",
                "telefono": "(03496) 481176",
                "localidad": "Esperanza"
            },
            "geometry": {
                "type": "Point",
                "coordinates": [-60.941481292247765, -31.4463531164999]
            }
        },
        {
            "type": "Feature",
            "properties": {
                "nombre": "Farmacia BORGOGNO",
                "direccion": "LEHMANN 2307",
                "telefono": "(03496) 429162",
                "localidad": "Esperanza"
            },
            "geometry": {
                "type": "Point",
                "coordinates": [-60.93831628561019, -31.44897314939507]
            }
        },
        {
            "type": "Feature",
            "properties": {
                "nombre": "Farmacia CLAUDIA SCHNEIDER",
                "direccion": "AV.COLONIZADORES 957",
                "telefono": "(03496) 424704",
                "localidad": "Esperanza"
            },
            "geometry": {
                "type": "Point",
                "coordinates": [-60.92485159635544, -31.45023737486834]
            }
        },
        {
            "type": "Feature",
            "properties": {
                "nombre": "Farmacia DONALISIO",
                "direccion": "AVELLANEDA 1937",
                "telefono": "(03496) 422797",
                "localidad": "Esperanza"
            },
            "geometry": {
                "type": "Point",
                "coordinates": [-60.9359747171402, -31.453106702954283]
            }
        },
        {
            "type": "Feature",
            "properties": {
                "nombre": "Farmacia EBERHARDT",
                "direccion": "SARMIENTO 1698",
                "telefono": "(03496) 421234",
                "localidad": "Esperanza"
            },
            "geometry": {
                "type": "Point",
                "coordinates": [-60.93236982822418, -31.452146837831258]
            }
        },
        {
            "type": "Feature",
            "properties": {
                "nombre": "Farmacia Mutual Jerarquicos",
                "direccion": "SARMIENTO 2307",
                "telefono": "(03496) 423499",
                "localidad": "Esperanza"
            },
            "geometry": {
                "type": "Point",
                "coordinates": [-60.9308248758316, -31.446877128940407]
            }
        },
        {
            "type": "Feature",
            "properties": {
                "nombre": "Farmacia FAVARIN",
                "direccion": "RIVADAVIA 1494",
                "telefono": "(03496) 420771",
                "localidad": "Esperanza"
            },
            "geometry": {
                "type": "Point",
                "coordinates": [-60.92996388673782, -31.454464683650862]
            }
        },
        {
            "type": "Feature",
            "properties": {
                "nombre": "Farmacia FERREYRA",
                "direccion": "GRAL.PAZ 3498",
                "telefono": "(03496) 423394",
                "localidad": "Esperanza"
            },
            "geometry": {
                "type": "Point",
                "coordinates": [-60.92941403388976, -31.43639861184474]
            }
        },
        {
            "type": "Feature",
            "properties": {
                "nombre": "Farmacia FORTI",
                "direccion": "GÜEMES 595",
                "telefono": "(03496) 4100500",
                "localidad": "Esperanza"
            },
            "geometry": {
                "type": "Point",
                "coordinates": [-60.921372771263115, -31.455501174623976]
            }
        },
        {
            "type": "Feature",
            "properties": {
                "nombre": "Farmacia FUENTES",
                "direccion": "MORENO 742",
                "telefono": "(03496) 426365",
                "localidad": "Esperanza"
            },
            "geometry": {
                "type": "Point",
                "coordinates": [-60.935786962509155, -31.45997419946289]
            }
        },
        {
            "type": "Feature",
            "properties": {
                "nombre": "Farmacia GAMBOA",
                "direccion": "BELGRANO 2324",
                "telefono": "(03496) 422345",
                "localidad": "Esperanza"
            },
            "geometry": {
                "type": "Point",
                "coordinates": [-60.92875957489014, -31.447204349196294]
            }
        },
        {
            "type": "Feature",
            "properties": {
                "nombre": "Farmacia HILAS",
                "direccion": "MITRE 2725",
                "telefono": "(03496) 410485",
                "localidad": "Esperanza"
            },
            "geometry": {
                "type": "Point",
                "coordinates": [-60.93511909246445, -31.442012167129278]
            }
        },
        {
            "type": "Feature",
            "properties": {
                "nombre": "Farmacia LIMACHE",
                "direccion": "AV.CÓRDOBA 1624",
                "telefono": "(03496) 420088",
                "localidad": "Esperanza"
            },
            "geometry": {
                "type": "Point",
                "coordinates": [-60.93161344528199, -31.44857042421346]
            }
        },
        {
            "type": "Feature",
            "properties": {
                "nombre": "Farmacia LONGONI",
                "direccion": "SAAVEDRA 1806",
                "telefono": "(03496) 425313",
                "localidad": "Esperanza"
            },
            "geometry": {
                "type": "Point",
                "coordinates": [-60.93661576509476, -31.45014928007161]
            }
        },
        {
            "type": "Feature",
            "properties": {
                "nombre": "Farmacia MORELLI",
                "direccion": "RIVADAVIA 2002",
                "telefono": "(03496) 420912",
                "localidad": "Esperanza"
            },
            "geometry": {
                "type": "Point",
                "coordinates": [-60.92863082885743, -31.450110381044095]
            }
        },
        {
            "type": "Feature",
            "properties": {
                "nombre": "Farmacia MORELLO",
                "direccion": "S.DE IRIONDO 4150",
                "telefono": "(03496) 428438",
                "localidad": "Esperanza"
            },
            "geometry": {
                "type": "Point",
                "coordinates": [-60.925058126449585, -31.431606342263272]
            }
        },
        {
            "type": "Feature",
            "properties": {
                "nombre": "Farmacia PERIN",
                "direccion": "LAVALLE 2098",
                "telefono": "(03496) 425330",
                "localidad": "Esperanza"
            },
            "geometry": {
                "type": "Point",
                "coordinates": [-60.93413203954697, -31.448101338722775]
            }
        },
        {
            "type": "Feature",
            "properties": {
                "nombre": "Farmacia PIERUCCIONI",
                "direccion": "BALCARCE 1605",
                "telefono": "(03496) 424024",
                "localidad": "Esperanza"
            },
            "geometry": {
                "type": "Point",
                "coordinates": [-60.93313157558441, -31.45821018295516]
            }
        },
        {
            "type": "Feature",
            "properties": {
                "nombre": "Farmacia SAD",
                "direccion": "SARMIENTO 2014",
                "telefono": "(03496) 421882",
                "localidad": "Esperanza"
            },
            "geometry": {
                "type": "Point",
                "coordinates": [-60.9315276145935, -31.449099000659295]
            }
        },
        {
            "type": "Feature",
            "properties": {
                "nombre": "Farmacia SAUGY",
                "direccion": "AV.COLONIZADORES 09",
                "telefono": "(03496) 420088",
                "localidad": "Esperanza"
            },
            "geometry": {
                "type": "Point",
                "coordinates": [-60.912317633628845, -31.453144456685354]
            }
        },
        {
            "type": "Feature",
            "properties": {
                "nombre": "Farmacia SERGIO SCHNEIDER",
                "direccion": "AV.CÓRDOBA 2251",
                "telefono": "(3496) 420834",
                "localidad": "Esperanza"
            },
            "geometry": {
                "type": "Point",
                "coordinates": [-60.93723803758621, -31.447348508806513]
            }
        },
        {
            "type": "Feature",
            "properties": {
                "nombre": "Farmacia SALIM ZEBALLOS",
                "direccion": "RIVADAVIA 2601",
                "telefono": "(3496) 421755",
                "localidad": "Esperanza"
            },
            "geometry": {
                "type": "Point",
                "coordinates": [-60.92690348625183, -31.44435772352411]
            }
        },
        {
            "type": "Feature",
            "properties": {
                "nombre": "Farmacia TARDIOLI",
                "direccion": "AV.ARGENTINA 1290",
                "telefono": "(03496) 423268",
                "localidad": "Esperanza"
            },
            "geometry": {
                "type": "Point",
                "coordinates": [-60.89962005615234, -31.456178434052795]
            }
        },
        {
            "type": "Feature",
            "properties": {
                "nombre": "Farmacia TKACZYK",
                "direccion": "A.CASTELLANOS 782",
                "telefono": "(03496) 421999",
                "localidad": "Esperanza"
            },
            "geometry": {
                "type": "Point",
                "coordinates": [-60.923156440258026, -31.451410057453025]
            }
        },
        {
            "type": "Feature",
            "properties": {
                "nombre": "Farmacia ZEHNDER",
                "direccion": "CULLEN 1332",
                "telefono": "(03496) 411555",
                "localidad": "Esperanza"
            },
            "geometry": {
                "type": "Point",
                "coordinates": [-60.92970371246338, -31.452707427715264]
            }
        },
        {
            "type": "Feature",
            "properties": {
                "nombre": "Farmacia ZUQUELLI",
                "direccion": "AUFRANC 1447",
                "telefono": "(03496) 420466",
                "localidad": "Esperanza"
            },
            "geometry": {
                "type": "Point",
                "coordinates": [-60.928021967411034, -31.44305108422939]
            }
        },
        {
            "type": "Feature",
            "properties": {
                "nombre": "Farmacia Abregú",
                "direccion": "Av. Freyre 3029",
                "telefono": "(0342) 4531300",
                "localidad": "Santa Fe"
            },
            "geometry": {
                "type": "Point",
                "coordinates": [-60.71646809577942, -31.638297361663813]
            }
        },
        {
            "type": "Feature",
            "properties": {
                "nombre": "Farmacia Acosta",
                "direccion": "Suipacha 2506",
                "telefono": "(0342) 4556677",
                "localidad": "Santa Fe"
            },
            "geometry": {
                "type": "Point",
                "coordinates": [-60.70395827293396, -31.64017443703991]
            }
        },
        {
            "type": "Feature",
            "properties": {
                "nombre": "Farmacia Agotegaray",
                "direccion": "Av. Freyre 3315",
                "telefono": "(0342) 4552838",
                "localidad": "Santa Fe"
            },
            "geometry": {
                "type": "Point",
                "coordinates": [-60.71562051773071, -31.635150549331115]
            }
        },
        {
            "type": "Feature",
            "properties": {
                "nombre": "Farmacia Alejandro Senn",
                "direccion": "4 de enero 2599",
                "telefono": "(0342) 4529302",
                "localidad": "Santa Fe"
            },
            "geometry": {
                "type": "Point",
                "coordinates": [-60.71143627166748, -31.644531298065434]
            }
        },
        {
            "type": "Feature",
            "properties": {
                "nombre": "Farmacia Amherdt",
                "direccion": "Saavedra 2499",
                "telefono": "(0342) 4592943",
                "localidad": "Santa Fe"
            },
            "geometry": {
                "type": "Point",
                "coordinates": [-60.715599060058594, -31.644672869789233]
            }
        },
        {
            "type": "Feature",
            "properties": {
                "nombre": "Farmacia Argenti",
                "direccion": "San Jerónimo 1746",
                "telefono": "(0342) 4592943",
                "localidad": "Santa Fe"
            },
            "geometry": {
                "type": "Point",
                "coordinates": [-60.71033120155334, -31.65452755861885]
            }
        },
        {
            "type": "Feature",
            "properties": {
                "nombre": "Farmacia Armando",
                "direccion": "25 de Mayo 3441",
                "telefono": "(0342) 4520603",
                "localidad": "Santa Fe"
            },
            "geometry": {
                "type": "Point",
                "coordinates": [-60.70273518562317, -31.636376859687367]
            }
        },
        {
            "type": "Feature",
            "properties": {
                "nombre": "Farmacia Arrimada",
                "direccion": "Marcial Candioti 3298",
                "telefono": "(0342) 4561397",
                "localidad": "Santa Fe"
            },
            "geometry": {
                "type": "Point",
                "coordinates": [-60.69602698087692, -31.63920165088152]
            }
        },
        {
            "type": "Feature",
            "properties": {
                "nombre": "Farmacia Asinari",
                "direccion": "Crespo 2808",
                "telefono": "(0342) 4530042",
                "localidad": "Santa Fe"
            },
            "geometry": {
                "type": "Point",
                "coordinates": [-60.70753902196885, -31.640650550499643]
            }
        },
        {
            "type": "Feature",
            "properties": {
                "nombre": "Farmacia Azanza",
                "direccion": "San Martín 2983",
                "telefono": "(0342) 4811118",
                "localidad": "Santa Fe"
            },
            "geometry": {
                "type": "Point",
                "coordinates": [-60.70500701665878, -31.641422374334216]
            }
        },
        {
            "type": "Feature",
            "properties": {
                "nombre": "Farmacia Banchio",
                "direccion": "Irigoyen Freyre 2200",
                "telefono": "(0342) 4522268",
                "localidad": "Santa Fe"
            },
            "geometry": {
                "type": "Point",
                "coordinates": [-60.7007074356079, -31.643202340083842]
            }
        },
        {
            "type": "Feature",
            "properties": {
                "nombre": "Farmacia Lucia Banchio",
                "direccion": "Av Gral Paz 7165",
                "telefono": "(0342) 4603500",
                "localidad": "Santa Fe"
            },
            "geometry": {
                "type": "Point",
                "coordinates": [-60.676127672195435, -31.60620767319672]
            }
        },
        {
            "type": "Feature",
            "properties": {
                "nombre": "Farmacia Barrientos",
                "direccion": "9 de Julio 2198",
                "telefono": "(0342) 4599601",
                "localidad": "Santa Fe"
            },
            "geometry": {
                "type": "Point",
                "coordinates": [-60.71013808250428, -31.649673410120904]
            }
        },
        {
            "type": "Feature",
            "properties": {
                "nombre": "Farmacia Belgrano",
                "direccion": "Rivadavia 3237",
                "telefono": "(0342) 4561118",
                "localidad": "Santa Fe"
            },
            "geometry": {
                "type": "Point",
                "coordinates": [-60.70197612047195, -31.63896187808202]
            }
        },
        {
            "type": "Feature",
            "properties": {
                "nombre": "Farmacia Bergesio",
                "direccion": "1º de Mayo 2699",
                "telefono": "(0342) 4523002",
                "localidad": "Santa Fe"
            },
            "geometry": {
                "type": "Point",
                "coordinates": [-60.70983231067657, -31.643828003080763]
            }
        },
        {
            "type": "Feature",
            "properties": {
                "nombre": "Farmacia Berrón",
                "direccion": "Pedro Goyena 3221",
                "telefono": "(0342) 4894530",
                "localidad": "Santa Fe"
            },
            "geometry": {
                "type": "Point",
                "coordinates": [-60.70616841316224, -31.615678137171308]
            }
        },
        {
            "type": "Feature",
            "properties": {
                "nombre": "Farmacia Bertolín",
                "direccion": "Urquiza 1067",
                "telefono": "(0342) 4580047",
                "localidad": "Santa Fe"
            },
            "geometry": {
                "type": "Point",
                "coordinates": [-60.71799695491791, -31.661659911382674]
            }
        },
        {
            "type": "Feature",
            "properties": {
                "nombre": "Farmacia Bolognesi",
                "direccion": "Facundo Zuviría 5079",
                "telefono": "(0342) 4887805",
                "localidad": "Santa Fe"
            },
            "geometry": {
                "type": "Point",
                "coordinates": [-60.70538520812988, -31.61974379086536]
            }
        },
        {
            "type": "Feature",
            "properties": {
                "nombre": "Farmacia Bonazzola",
                "direccion": "Av.Freyre 2298",
                "telefono": "(0342) 4529098",
                "localidad": "Santa Fe"
            },
            "geometry": {
                "type": "Point",
                "coordinates": [-60.71852266788483, -31.646353446686067]
            }
        },
        {
            "type": "Feature",
            "properties": {
                "nombre": "Farmacia Bonazzola Estefanía",
                "direccion": "A. del Valle 5118",
                "telefono": "(0342) 4526519",
                "localidad": "Santa Fe"
            },
            "geometry": {
                "type": "Point",
                "coordinates": [-60.69871187210082, -31.62063912444419]
            }
        },
        {
            "type": "Feature",
            "properties": {
                "nombre": "Farmacia Bordignon",
                "direccion": "Suipacha 2310",
                "telefono": "(0342) 4527618",
                "localidad": "Santa Fe"
            },
            "geometry": {
                "type": "Point",
                "coordinates": [-60.70153892040253, -31.640777285326298]
            }
        },
        {
            "type": "Feature",
            "properties": {
                "nombre": "Farmacia Bosch",
                "direccion": "Santiago del Estero 2764",
                "telefono": "(0342) 4569919/ 4540404",
                "localidad": "Santa Fe"
            },
            "geometry": {
                "type": "Point",
                "coordinates": [-60.70605307817459, -31.637386212876457]
            }
        },
        {
            "type": "Feature",
            "properties": {
                "nombre": "Farmacia Bourdin",
                "direccion": "Alberdi 3500",
                "telefono": "(0342) 4528066",
                "localidad": "Santa Fe"
            },
            "geometry": {
                "type": "Point",
                "coordinates": [-60.69222092628479, -31.63780639287503]
            }
        },
        {
            "type": "Feature",
            "properties": {
                "nombre": "Farmacia Braicovich",
                "direccion": "López y Planes 4499",
                "telefono": "(0342) 4563029",
                "localidad": "Santa Fe"
            },
            "geometry": {
                "type": "Point",
                "coordinates": [-60.71370005607604, -31.62366309560433]
            }
        },
        {
            "type": "Feature",
            "properties": {
                "nombre": "Farmacia Brambilla",
                "direccion": "Estanislao Zeballos 3731",
                "telefono": "(0342) 4894243/ 4894287",
                "localidad": "Santa Fe"
            },
            "geometry": {
                "type": "Point",
                "coordinates": [-60.70916175842285, -31.60233789139023]
            }
        },
        {
            "type": "Feature",
            "properties": {
                "nombre": "Farmacia Bruno",
                "direccion": "General Paz 5550",
                "telefono": "(0342) 4602204",
                "localidad": "Santa Fe"
            },
            "geometry": {
                "type": "Point",
                "coordinates": [-60.685333013534546, -31.619410322585914]
            }
        },
        {
            "type": "Feature",
            "properties": {
                "nombre": "Farmacia Camilatto",
                "direccion": "Zeballos 2702",
                "telefono": "(0342) 4603413",
                "localidad": "Santa Fe"
            },
            "geometry": {
                "type": "Point",
                "coordinates": [-60.69587141275405, -31.605147725341183]
            }
        },
        {
            "type": "Feature",
            "properties": {
                "nombre": "Farmacia Camusso",
                "direccion": "4 de Enero 1594",
                "telefono": "(0342) 4594678",
                "localidad": "Santa Fe"
            },
            "geometry": {
                "type": "Point",
                "coordinates": [-60.71487754583359, -31.656196541698968]
            }
        },
        {
            "type": "Feature",
            "properties": {
                "nombre": "Farmacia Caporizzo",
                "direccion": "A.del Valle 8908",
                "telefono": "(0342) 4122564",
                "localidad": "Santa Fe"
            },
            "geometry": {
                "type": "Point",
                "coordinates": [-60.69091200828552, -31.586420752189465]
            }
        },
        {
            "type": "Feature",
            "properties": {
                "nombre": "Farmacia Capra",
                "direccion": "4 de Enero 1301",
                "telefono": "(0342) 4597877",
                "localidad": "Santa Fe"
            },
            "geometry": {
                "type": "Point",
                "coordinates": [-60.715915560722344, -31.659271867036313]
            }
        },
        {
            "type": "Feature",
            "properties": {
                "nombre": "Farmacia Caraballo",
                "direccion": "Diagonal Goyena 3460",
                "telefono": "(0342) 4880356",
                "localidad": "Santa Fe"
            },
            "geometry": {
                "type": "Point",
                "coordinates": [-60.709370970726006, -31.61564159116416]
            }
        },
        {
            "type": "Feature",
            "properties": {
                "nombre": "Farmacia Cardoso",
                "direccion": "Freyre 2638",
                "telefono": "(0342) 4537137/ 452-6344",
                "localidad": "Santa Fe"
            },
            "geometry": {
                "type": "Point",
                "coordinates": [-60.71746051311493, -31.64265431064208]
            }
        },
        {
            "type": "Feature",
            "properties": {
                "nombre": "Farmacia Castro Karina",
                "direccion": "Berutti 6561",
                "telefono": "(0342) 155 944727",
                "localidad": "Santa Fe"
            },
            "geometry": {
                "type": "Point",
                "coordinates": [-60.74285298585892, -31.58210915429133]
            }
        },
        {
            "type": "Feature",
            "properties": {
                "nombre": "Farmacia Cattaino",
                "direccion": "9 de Julio 5198",
                "telefono": "(0342) 4526617",
                "localidad": "Santa Fe"
            },
            "geometry": {
                "type": "Point",
                "coordinates": [-60.70129752159119, -31.61950168387721]
            }
        },
        {
            "type": "Feature",
            "properties": {
                "nombre": "Farmacia Chelini",
                "direccion": "Facundo Zuviría 4679",
                "telefono": "(0342) 4530348",
                "localidad": "Santa Fe"
            },
            "geometry": {
                "type": "Point",
                "coordinates": [-60.70545494556427, -31.623649392029183]
            }
        },
        {
            "type": "Feature",
            "properties": {
                "nombre": "Farmacia Chemes",
                "direccion": "Urquiza 2179",
                "telefono": "(0342) 4597575",
                "localidad": "Santa Fe"
            },
            "geometry": {
                "type": "Point",
                "coordinates": [-60.71415066719055, -31.64933548253688]
            }
        },
        {
            "type": "Feature",
            "properties": {
                "nombre": "Farmacia Clavé",
                "direccion": "Gral.Paz 4369",
                "telefono": "(0342) 4539694 - 154622615",
                "localidad": "Santa Fe"
            },
            "geometry": {
                "type": "Point",
                "coordinates": [-60.692507922649376, -31.629523472902072]
            }
        },
        {
            "type": "Feature",
            "properties": {
                "nombre": "Farmacia Colucci",
                "direccion": "Freyre 1908",
                "telefono": "(0342) 4599418",
                "localidad": "Santa Fe"
            },
            "geometry": {
                "type": "Point",
                "coordinates": [-60.72004616260528, -31.65165985148699]
            }
        },
        {
            "type": "Feature",
            "properties": {
                "nombre": "Farmacia Coniglio",
                "direccion": "Facundo Zuviría 5918",
                "telefono": "(0342) 4893327",
                "localidad": "Santa Fe"
            },
            "geometry": {
                "type": "Point",
                "coordinates": [-60.704706609249115, -31.611817885879656]
            }
        },
        {
            "type": "Feature",
            "properties": {
                "nombre": "Farmacia Costa",
                "direccion": "Blas Parera 5671",
                "telefono": "(0342) 4895215",
                "localidad": "Santa Fe"
            },
            "geometry": {
                "type": "Point",
                "coordinates": [-60.71886599063873, -31.611022974021477]
            }
        },
        {
            "type": "Feature",
            "properties": {
                "nombre": "Farmacia Costa Samita",
                "direccion": "Aristóbulo del Valle 6378",
                "telefono": "(0342) 4602586",
                "localidad": "Santa Fe"
            },
            "geometry": {
                "type": "Point",
                "coordinates": [-60.69406896829605, -31.609561049435488]
            }
        },
        {
            "type": "Feature",
            "properties": {
                "nombre": "Farmacia Curti",
                "direccion": "Entre Ríos 3288",
                "telefono": "(0342) 4598218",
                "localidad": "Santa Fe"
            },
            "geometry": {
                "type": "Point",
                "coordinates": [-60.719659924507134, -31.6585275882798]
            }
        },
        {
            "type": "Feature",
            "properties": {
                "nombre": "Farmacia Damiani",
                "direccion": "Urquiza 3180",
                "telefono": "(0342) 4565287",
                "localidad": "Santa Fe"
            },
            "geometry": {
                "type": "Point",
                "coordinates": [-60.710800588130944, -31.637712765974513]
            }
        },
        {
            "type": "Feature",
            "properties": {
                "nombre": "Farmacia Daniel Lagger",
                "direccion": "Facundo Zuviría 6536",
                "telefono": "(0342) 4895994",
                "localidad": "Santa Fe"
            },
            "geometry": {
                "type": "Point",
                "coordinates": [-60.703319907188416, -31.60627391953705]
            }
        },
        {
            "type": "Feature",
            "properties": {
                "nombre": "Farmacia Donadío",
                "direccion": "Javier de la Rosa 322",
                "telefono": "(0342) 4606020",
                "localidad": "Santa Fe"
            },
            "geometry": {
                "type": "Point",
                "coordinates": [-60.668161511421204, -31.604412150987326]
            }
        },
        {
            "type": "Feature",
            "properties": {
                "nombre": "Farmacia El Inca",
                "direccion": "San Martín 2255",
                "telefono": "0342 4521747 /4535657",
                "localidad": "Santa Fe"
            },
            "geometry": {
                "type": "Point",
                "coordinates": [-60.7075148820877, -31.64952271283656]
            }
        },
        {
            "type": "Feature",
            "properties": {
                "nombre": "Farmacia Escudero",
                "direccion": "Galicia 1881",
                "telefono": "(0342) 4607386",
                "localidad": "Santa Fe"
            },
            "geometry": {
                "type": "Point",
                "coordinates": [-60.68648636341094, -31.606765054728175]
            }
        },
        {
            "type": "Feature",
            "properties": {
                "nombre": "Farmacia Esterkin",
                "direccion": "San Jerónimo 1995",
                "telefono": "(0342) 4597766",
                "localidad": "Santa Fe"
            },
            "geometry": {
                "type": "Point",
                "coordinates": [-60.7097116112709, -31.652376786565355]
            }
        },
        {
            "type": "Feature",
            "properties": {
                "nombre": "Farmacia Facino",
                "direccion": "Diagonal España 3176",
                "telefono": "(0342) 5805041",
                "localidad": "Santa Fe"
            },
            "geometry": {
                "type": "Point",
                "coordinates": [-60.70021927356719, -31.639891279677602]
            }
        },
        {
            "type": "Feature",
            "properties": {
                "nombre": "Farmacia Fanessi",
                "direccion": "1º de Mayo 2899",
                "telefono": "(0342) 4539000",
                "localidad": "Santa Fe"
            },
            "geometry": {
                "type": "Point",
                "coordinates": [-60.7091349363327, -31.64156509253667]
            }
        },
        {
            "type": "Feature",
            "properties": {
                "nombre": "Farmacia Ferro",
                "direccion": "Francia 2998",
                "telefono": "(0342) 4555962",
                "localidad": "Santa Fe"
            },
            "geometry": {
                "type": "Point",
                "coordinates": [-60.712798833847046, -31.63959784553353]
            }
        },
        {
            "type": "Feature",
            "properties": {
                "nombre": "Farmacia Figueroa Sobrero",
                "direccion": "Gral.Paz 7471",
                "telefono": "(0342) 4601179",
                "localidad": "Santa Fe"
            },
            "geometry": {
                "type": "Point",
                "coordinates": [-60.67500114440917, -31.603434422043943]
            }
        },
        {
            "type": "Feature",
            "properties": {
                "nombre": "Farmacia Finelli",
                "direccion": "Las Heras 7304",
                "telefono": "(0342) 4600104",
                "localidad": "Santa Fe"
            },
            "geometry": {
                "type": "Point",
                "coordinates": [-60.68745732307434, -31.60215056611228]
            }
        },
        {
            "type": "Feature",
            "properties": {
                "nombre": "Farmacia Fucksmann",
                "direccion": "Saavedra 3081/85",
                "telefono": "(0342) 4523165",
                "localidad": "Santa Fe"
            },
            "geometry": {
                "type": "Point",
                "coordinates": [-60.71375906467437, -31.638292794524244]
            }
        },
        {
            "type": "Feature",
            "properties": {
                "nombre": "Farmacia Gabriel Jauregui",
                "direccion": "Echagüe 7254",
                "telefono": "(0342) 4604556",
                "localidad": "Santa Fe"
            },
            "geometry": {
                "type": "Point",
                "coordinates": [-60.670645236968994, -31.606289910025943]
            }
        },
        {
            "type": "Feature",
            "properties": {
                "nombre": "Farmacia García",
                "direccion": "Rivadavia 3193",
                "telefono": "(0342) 4550724",
                "localidad": "Santa Fe"
            },
            "geometry": {
                "type": "Point",
                "coordinates": [-60.70214778184891, -31.63947110909936]
            }
        },
        {
            "type": "Feature",
            "properties": {
                "nombre": "Farmacia Germán López",
                "direccion": ".Gral.Paz 5210",
                "telefono": "(0342) 4528048",
                "localidad": "Santa Fe"
            },
            "geometry": {
                "type": "Point",
                "coordinates": [-60.68741708993912, -31.622390938443168]
            }
        },
        {
            "type": "Feature",
            "properties": {
                "nombre": "Farmacia Gimenez",
                "direccion": "Urquiza 2332",
                "telefono": "(0342) 4526256",
                "localidad": "Santa Fe"
            },
            "geometry": {
                "type": "Point",
                "coordinates": [-60.71342647075653, -31.647017905529772]
            }
        },
        {
            "type": "Feature",
            "properties": {
                "nombre": "Farmacia Giulioni",
                "direccion": "Gorostiaga 3038",
                "telefono": "(0342) 4889970",
                "localidad": "Santa Fe"
            },
            "geometry": {
                "type": "Point",
                "coordinates": [-60.702069997787476, -31.610625515546968]
            }
        },
        {
            "type": "Feature",
            "properties": {
                "nombre": "Farmacia Gómez",
                "direccion": "Vera Peñaloza 6839",
                "telefono": "(0342) 4843684",
                "localidad": "Santa Fe"
            },
            "geometry": {
                "type": "Point",
                "coordinates": [-60.71277201175689, -31.600999192713676]
            }
        },
        {
            "type": "Feature",
            "properties": {
                "nombre": "Farmacia Gottero",
                "direccion": "San Martín 2699",
                "telefono": "(0342) 4530644",
                "localidad": "Santa Fe"
            },
            "geometry": {
                "type": "Point",
                "coordinates": [-60.70596992969513, -31.644531298065434]
            }
        },
        {
            "type": "Feature",
            "properties": {
                "nombre": "Farmacia Burgués Romano",
                "direccion": "Blas Parera 7001",
                "telefono": "(0342) 4891807",
                "localidad": "Santa Fe"
            },
            "geometry": {
                "type": "Point",
                "coordinates": [-60.72268277406692, -31.597458173414367]
            }
        },
        {
            "type": "Feature",
            "properties": {
                "nombre": "Farmacia Ignacio Azanza",
                "direccion": "López y Planes 3901",
                "telefono": "(0342) 4526526",
                "localidad": "Santa Fe"
            },
            "geometry": {
                "type": "Point",
                "coordinates": [-60.71397900581359, -31.629263121029485]
            }
        },
        {
            "type": "Feature",
            "properties": {
                "nombre": "Farmacia Imhof",
                "direccion": "Marcial Candioti 2796",
                "telefono": "(0342) 4566137",
                "localidad": "Santa Fe"
            },
            "geometry": {
                "type": "Point",
                "coordinates": [-60.69723665714264, -31.643314229031123]
            }
        },
        {
            "type": "Feature",
            "properties": {
                "nombre": "Farmacia Lagger Zurbriggen",
                "direccion": "Las Heras 5401",
                "telefono": "4603331",
                "localidad": "Santa Fe"
            },
            "geometry": {
                "type": "Point",
                "coordinates": [-60.6928727030754, -31.61927556451754]
            }
        },
        {
            "type": "Feature",
            "properties": {
                "nombre": "Farmacia Lencinas",
                "direccion": "Balcarce 2384",
                "telefono": "4811613",
                "localidad": "Santa Fe"
            },
            "geometry": {
                "type": "Point",
                "coordinates": [-60.70128679275512, -31.63724234646239]
            }
        },
        {
            "type": "Feature",
            "properties": {
                "nombre": "Farmacia María Selva",
                "direccion": "Av A. del valle 6600",
                "telefono": "4847455",
                "localidad": "Santa Fe"
            },
            "geometry": {
                "type": "Point",
                "coordinates": [-60.727945268154144, -31.57688333079243]
            }
        },
        {
            "type": "Feature",
            "properties": {
                "nombre": "Farmacia Santiago",
                "direccion": "Necochea 4162",
                "telefono": "4811560",
                "localidad": "Santa Fe"
            },
            "geometry": {
                "type": "Point",
                "coordinates": [-60.69255888462067, -31.63136190178939]
            }
        },
        {
            "type": "Feature",
            "properties": {
                "nombre": "Farmacia Vinderola",
                "direccion": "Bv Pellegrini 3060",
                "telefono": "4531674",
                "localidad": "Santa Fe"
            },
            "geometry": {
                "type": "Point",
                "coordinates": [-60.70923954248428, -31.634173143277657]
            }
        },
        {
            "type": "Feature",
            "properties": {
                "nombre": "Farmacia Leiva",
                "direccion": "25 de Mayo esq Rioja",
                "telefono": "4537968",
                "localidad": "Santa Fe"
            },
            "geometry": {
                "type": "Point",
                "coordinates": [-60.70565342903137, -31.64585795366672]
            }
        },
        {
            "type": "Feature",
            "properties": {
                "nombre": "Farmacia Mercado central",
                "direccion": "San Gerónimo 2179",
                "telefono": "4597200",
                "localidad": "Santa Fe"
            },
            "geometry": {
                "type": "Point",
                "coordinates": [-60.70908665657043, -31.650091251313267]
            }
        },
        {
            "type": "Feature",
            "properties": {
                "nombre": "Farmacia Morales",
                "direccion": "Av A. del Valle 5827",
                "telefono": "4696396",
                "localidad": "Santa Fe"
            },
            "geometry": {
                "type": "Point",
                "coordinates": [-60.696777999401085, -31.61463428619399]
            }
        },
        {
            "type": "Feature",
            "properties": {
                "nombre": "Farmacia Nebiolo",
                "direccion": "Av A. del Valle 7781",
                "telefono": "4609883",
                "localidad": "Santa Fe"
            },
            "geometry": {
                "type": "Point",
                "coordinates": [-60.6920599937439, -31.596539770939152]
            }
        },
        {
            "type": "Feature",
            "properties": {
                "nombre": "Farmacia Ortiz de Zárate",
                "direccion": "Av J.J. Paso 3299",
                "telefono": "4599865",
                "localidad": "Santa Fe"
            },
            "geometry": {
                "type": "Point",
                "coordinates": [-60.72075426578522, -31.661874512744582]
            }
        },
        {
            "type": "Feature",
            "properties": {
                "nombre": "Farmacia Wagner",
                "direccion": "Av F. Zuviría 4201",
                "telefono": "4531215",
                "localidad": "Santa Fe"
            },
            "geometry": {
                "type": "Point",
                "coordinates": [-60.705304741859436, -31.628203435713967]
            }
        },
        {
            "type": "Feature",
            "properties": {
                "nombre": "Farmacia Wuilloud",
                "direccion": "San Jerónimo 1801",
                "telefono": "4597895",
                "localidad": "Santa Fe"
            },
            "geometry": {
                "type": "Point",
                "coordinates": [-60.71033120155334, -31.65454125764439]
            }
        },
        {
            "type": "Feature",
            "properties": {
                "nombre": "Farmacia Ghersi",
                "direccion": "Pte Roca 2993",
                "telefono": "(0342) 5808242",
                "localidad": "Santa Fe"
            },
            "geometry": {
                "type": "Point",
                "coordinates": [-60.70277273654938, -31.61472793632205]
            }
        },
        {
            "type": "Feature",
            "properties": {
                "nombre": "Farmacia Lauxmann",
                "direccion": "Bv. Zavalla 1417",
                "telefono": "4599610",
                "localidad": "Santa Fe"
            },
            "geometry": {
                "type": "Point",
                "coordinates": [-60.72339624166489, -31.656760473119217]
            }
        },
        {
            "type": "Feature",
            "properties": {
                "nombre": "Farmacia Theiller",
                "direccion": "Av. Gral. Paz 5773",
                "telefono": "4604334",
                "localidad": "Santa Fe"
            },
            "geometry": {
                "type": "Point",
                "coordinates": [-60.68408846855163, -31.617619623169887]
            }
        },
        {
            "type": "Feature",
            "properties": {
                "nombre": "Farmacia Trucco",
                "direccion": "Las Heras 4501",
                "telefono": "(0342) 4528523",
                "localidad": "Santa Fe"
            },
            "geometry": {
                "type": "Point",
                "coordinates": [-60.69489508867264, -31.627614208915812]
            }
        },
        {
            "type": "Feature",
            "properties": {
                "nombre": "Farmacia Throendly",
                "direccion": "Av. Blas Parera 8235",
                "telefono": "(0342) 4895440",
                "localidad": "Santa Fe"
            },
            "geometry": {
                "type": "Point",
                "coordinates": [-60.72600066661835, -31.585356009413097]
            }
        },
        {
            "type": "Feature",
            "properties": {
                "nombre": "Farmacia Mazzali",
                "direccion": "Juan de Garay 2915",
                "telefono": "(0342) 4581286",
                "localidad": "Santa Fe"
            },
            "geometry": {
                "type": "Point",
                "coordinates": [-60.71237236261367, -31.65182881120736]
            }
        },
        {
            "type": "Feature",
            "properties": {
                "nombre": "Farmacia Pellegrini",
                "direccion": "Bv. Pellegrini 3465",
                "telefono": "(0342) 4521233",
                "localidad": "Santa Fe"
            },
            "geometry": {
                "type": "Point",
                "coordinates": [-60.714523494243615, -31.63327793993646]
            }
        },
        {
            "type": "Feature",
            "properties": {
                "nombre": "Farmacia Plank",
                "direccion": "Av. Gral Paz 4921",
                "telefono": "(0342) 4121491",
                "localidad": "Santa Fe"
            },
            "geometry": {
                "type": "Point",
                "coordinates": [-60.68912029266357, -31.624777646291232]
            }
        },
        {
            "type": "Feature",
            "properties": {
                "nombre": "Farmacia Strada",
                "direccion": "Bv. Zavalla 1067",
                "telefono": "(0342) 4599798",
                "localidad": "Santa Fe"
            },
            "geometry": {
                "type": "Point",
                "coordinates": [-60.72445571422576, -31.66033119829793]
            }
        },
        {
            "type": "Feature",
            "properties": {
                "nombre": "Farmacia Liliana Martinez",
                "direccion": "Belgrano 6503",
                "telefono": "(0342) 4606780",
                "localidad": "Santa Fe"
            },
            "geometry": {
                "type": "Point",
                "coordinates": [-60.69063574075698, -31.609184143280896]
            }
        },
        {
            "type": "Feature",
            "properties": {
                "nombre": "Farmacia Marcelo Galizzi",
                "direccion": "Av Blas Parera 8894",
                "telefono": "(0342) 4840578",
                "localidad": "Santa Fe"
            },
            "geometry": {
                "type": "Point",
                "coordinates": [-60.72795867919921, -31.57687190540914]
            }
        },
        {
            "type": "Feature",
            "properties": {
                "nombre": "Farmacia Mario Martinez",
                "direccion": "Av Aristóbulo del Valle 4499",
                "telefono": "(0342) 4531597",
                "localidad": "Santa Fe"
            },
            "geometry": {
                "type": "Point",
                "coordinates": [-60.70032119750976, -31.6264859890513]
            }
        },
        {
            "type": "Feature",
            "properties": {
                "nombre": "Farmacia Pardo",
                "direccion": "9 de Julio 3443",
                "telefono": "(0342) 4566267",
                "localidad": "Santa Fe"
            },
            "geometry": {
                "type": "Point",
                "coordinates": [-60.706007480621345, -31.635536484874034]
            }
        },
        {
            "type": "Feature",
            "properties": {
                "nombre": "Farmacia Sabio",
                "direccion": "Angel Casanello 898",
                "telefono": "(0342) 4608172",
                "localidad": "Santa Fe"
            },
            "geometry": {
                "type": "Point",
                "coordinates": [-60.676953792572014, -31.613065061494765]
            }
        },
        {
            "type": "Feature",
            "properties": {
                "nombre": "Farmacia San Lorenzo",
                "direccion": "Av Freyre 1598",
                "telefono": "(0342) 4593487",
                "localidad": "Santa Fe"
            },
            "geometry": {
                "type": "Point",
                "coordinates": [-60.72145298123359, -31.655110907001543]
            }
        },
        {
            "type": "Feature",
            "properties": {
                "nombre": "Farmacia Santiváñez",
                "direccion": "Estanislao Zeballos 4453",
                "telefono": "(0342) 4892739",
                "localidad": "Santa Fe"
            },
            "geometry": {
                "type": "Point",
                "coordinates": [-60.718560218811035, -31.6002681545962]
            }
        },
        {
            "type": "Feature",
            "properties": {
                "nombre": "Farmacia Tonini",
                "direccion": "Avellaneda 3498",
                "telefono": "(0342) 4538391",
                "localidad": "Santa Fe"
            },
            "geometry": {
                "type": "Point",
                "coordinates": [-60.68803064525128, -31.63892134500007]
            }
        },
        {
            "type": "Feature",
            "properties": {
                "nombre": "Farmacia Zimmerman",
                "direccion": "Padre Genesio 2971",
                "telefono": "(0342) 4691616",
                "localidad": "Santa Fe"
            },
            "geometry": {
                "type": "Point",
                "coordinates": [-60.69773554801941, -31.598952271524254]
            }
        },
        {
            "type": "Feature",
            "properties": {
                "nombre": "Farmacia Morante",
                "direccion": "El Pozo.M .8.Vda.43",
                "telefono": "(0342) 4511485",
                "localidad": "Santa Fe"
            },
            "geometry": {
                "type": "Point",
                "coordinates": [-60.7266374, -31.6442434]
            }
        },
        {
            "type": "Feature",
            "properties": {
                "nombre": "Farmacia Queglas",
                "direccion": "12 de Infantería 4400 - Las Flores II - M 8 - Dto.379",
                "telefono": "(0342) 4897439",
                "localidad": "Santa Fe"
            },
            "geometry": {
                "type": "Point",
                "coordinates": [-60.7304521, -31.5750544]
            }
        },
        {
            "type": "Feature",
            "properties": {
                "nombre": "Farmacia Salvatierra",
                "direccion": "Av Gral Lopez 3272",
                "telefono": "(0342) 4598352",
                "localidad": "Santa Fe"
            },
            "geometry": {
                "type": "Point",
                "coordinates": [-60.718345642089844, -31.655570961949646]
            }
        },
        {
            "type": "Feature",
            "properties": {
                "nombre": "Farmacia Sileoni",
                "direccion": "Angel Casanello 519",
                "telefono": "(0342) 4604940",
                "localidad": "Santa Fe"
            },
            "geometry": {
                "type": "Point",
                "coordinates": [-60.67299216985702, -31.614008426821663]
            }
        },
        {
            "type": "Feature",
            "properties": {
                "nombre": "Farmacia Judith Acevedo",
                "direccion": "Castelli 3642",
                "telefono": "0342-155329661",
                "localidad": "Santa Fe"
            },
            "geometry": {
                "type": "Point",
                "coordinates": [-60.7083371216378, -31.603420979474343]
            }
        },
        {
            "type": "Feature",
            "properties": {
                "nombre": "Farmacia Montes",
                "direccion": "Av. Gral Paz 6765",
                "telefono": "0342-4605026",
                "localidad": "Santa Fe"
            },
            "geometry": {
                "type": "Point",
                "coordinates": [-60.677672613708886, -31.60907508436396]
            }
        },
        {
            "type": "Feature",
            "properties": {
                "nombre": "Farmacia Santa Fe",
                "direccion": "Saavedra 1822",
                "telefono": "4592301 - 4599707",
                "localidad": "Santa Fe"
            },
            "geometry": {
                "type": "Point",
                "coordinates": [-60.717958745088865, -31.652742499414245]
            }
        },
        {
            "type": "Feature",
            "properties": {
                "nombre": "Farmacia Sen",
                "direccion": "Salvador del Carril 1672",
                "telefono": "0342-4605463",
                "localidad": "Santa Fe"
            },
            "geometry": {
                "type": "Point",
                "coordinates": [-60.68790060028192, -31.62015781588531]
            }
        },
        {
            "type": "Feature",
            "properties": {
                "nombre": "Farmacia Suppo",
                "direccion": "Av. Aristobulo del Valle 6897",
                "telefono": "0342-4604141",
                "localidad": "Santa Fe"
            },
            "geometry": {
                "type": "Point",
                "coordinates": [-60.69275971656983, -31.604949687541104]
            }
        },
        {
            "type": "Feature",
            "properties": {
                "nombre": "Farmacia Ugolini",
                "direccion": "Av. Gorriti 4512",
                "telefono": "0342-4802555",
                "localidad": "Santa Fe"
            },
            "geometry": {
                "type": "Point",
                "coordinates": [-60.71486161340923, -31.585338113902896]
            }
        },
        {
            "type": "Feature",
            "properties": {
                "nombre": "Farmacia Bonazzola Denise",
                "direccion": "Gral López 2740",
                "telefono": "0342-156139373",
                "localidad": "Santa Fe"
            },
            "geometry": {
                "type": "Point",
                "coordinates": [-60.71140220462381, -31.656715400556802]
            }
        },
        {
            "type": "Feature",
            "properties": {
                "nombre": "Farmacia López",
                "direccion": "Av Lopez y Planes 4267",
                "telefono": "0342-4534829",
                "localidad": "Santa Fe"
            },
            "geometry": {
                "type": "Point",
                "coordinates": [-60.71394109594187, -31.625696015123836]
            }
        },
        {
            "type": "Feature",
            "properties": {
                "nombre": "Farmacia Mai",
                "direccion": "Av Aristobulo del Valle 7302",
                "telefono": "0342-4602224",
                "localidad": "Santa Fe"
            },
            "geometry": {
                "type": "Point",
                "coordinates": [-60.691731184531434, -31.601134989878936]
            }
        },
        {
            "type": "Feature",
            "properties": {
                "nombre": "Farmacia Martinez Juan José",
                "direccion": "Urquiza 1859",
                "telefono": "0342-4599949",
                "localidad": "Santa Fe"
            },
            "geometry": {
                "type": "Point",
                "coordinates": [-60.715294571209384, -31.65300595776822]
            }
        },
        {
            "type": "Feature",
            "properties": {
                "nombre": "Farmacia Méndez",
                "direccion": "Güemes 4356",
                "telefono": "0342-4531945",
                "localidad": "Santa Fe"
            },
            "geometry": {
                "type": "Point",
                "coordinates": [-60.6867574148171, -31.630725039872218]
            }
        },
        {
            "type": "Feature",
            "properties": {
                "nombre": "Farmacia Naito",
                "direccion": "Mendoza 4098",
                "telefono": "0342-4563842",
                "localidad": "Santa Fe"
            },
            "geometry": {
                "type": "Point",
                "coordinates": [-60.726578490330375, -31.644206013528233]
            }
        },
        {
            "type": "Feature",
            "properties": {
                "nombre": "Farmacia Pasteur",
                "direccion": "Marcial Candiotti 3499",
                "telefono": "0342-4520608",
                "localidad": "Santa Fe"
            },
            "geometry": {
                "type": "Point",
                "coordinates": [-60.69556661782887, -31.63733617274003]
            }
        },
        {
            "type": "Feature",
            "properties": {
                "nombre": "Farmacia Rojas",
                "direccion": "Blas Parera 7202",
                "telefono": "0342-4892747",
                "localidad": "Santa Fe"
            },
            "geometry": {
                "type": "Point",
                "coordinates": [-60.72304392630359, -31.59533764374118]
            }
        },
        {
            "type": "Feature",
            "properties": {
                "nombre": "Farmacia Valetti",
                "direccion": "Av. Gral Paz 6440",
                "telefono": "0342-4692747",
                "localidad": "Santa Fe"
            },
            "geometry": {
                "type": "Point",
                "coordinates": [-60.679567318699135, -31.612092988136926]
            }
        },
        {
            "type": "Feature",
            "properties": {
                "nombre": "Farmacia Junges",
                "direccion": "Güemes 3701",
                "telefono": "0342-4561203",
                "localidad": "Santa Fe"
            },
            "geometry": {
                "type": "Point",
                "coordinates": [-60.6885345731616, -31.636646886107116]
            }
        },
        {
            "type": "Feature",
            "properties": {
                "nombre": "Farmacia Long",
                "direccion": "Av Aristobulo del Valle 4026",
                "telefono": "0342-4552457",
                "localidad": "Santa Fe"
            },
            "geometry": {
                "type": "Point",
                "coordinates": [-60.70092223474357, -31.63089083467091]
            }
        },
        {
            "type": "Feature",
            "properties": {
                "nombre": "Farmacia Ortega",
                "direccion": "Blas Parera 8374",
                "telefono": "0342-4842593",
                "localidad": "Santa Fe"
            },
            "geometry": {
                "type": "Point",
                "coordinates": [-60.72613608238575, -31.583755197730717]
            }
        },
        {
            "type": "Feature",
            "properties": {
                "nombre": "Farmacia Pedro A. Kornijuk",
                "direccion": "Av Facundo Zuviria 5323",
                "telefono": "0342-4882156",
                "localidad": "Santa Fe"
            },
            "geometry": {
                "type": "Point",
                "coordinates": [-60.70550489310927, -31.617249016947387]
            }
        },
        {
            "type": "Feature",
            "properties": {
                "nombre": "Farmacia Sartor",
                "direccion": "Ituzaingó 2169",
                "telefono": "0342-4555412",
                "localidad": "Santa Fe"
            },
            "geometry": {
                "type": "Point",
                "coordinates": [-60.698964647505264, -31.638512090982648]
            }
        },
        {
            "type": "Feature",
            "properties": {
                "nombre": "Farmacia Valverde",
                "direccion": "1 de mayo 2215",
                "telefono": "0342-4535891",
                "localidad": "Santa Fe"
            },
            "geometry": {
                "type": "Point",
                "coordinates": [-60.711469565561984, -31.649257463621904]
            }
        },
        {
            "type": "Feature",
            "properties": {
                "nombre": "Farmacia Verónica Cano",
                "direccion": "Suipacha 2912",
                "telefono": "0342-4558880",
                "localidad": "Santa Fe"
            },
            "geometry": {
                "type": "Point",
                "coordinates": [-60.70866803555523, -31.639159244661148]
            }
        },
        {
            "type": "Feature",
            "properties": {
                "nombre": "Farmacia Vignolo",
                "direccion": "Av Gral Paz 4698",
                "telefono": "0342-4538276",
                "localidad": "Santa Fe"
            },
            "geometry": {
                "type": "Point",
                "coordinates": [-60.690405920696364, -31.626716461564783]
            }
        },
        {
            "type": "Feature",
            "properties": {
                "nombre": "Farmacia Pacce",
                "direccion": "Av Aristobulo del Valle 4900",
                "telefono": "0342-4558517",
                "localidad": "Santa Fe"
            },
            "geometry": {
                "type": "Point",
                "coordinates": [-60.69915121636052, -31.622822703116327]
            }
        },
        {
            "type": "Feature",
            "properties": {
                "nombre": "Farmacia Peiro",
                "direccion": "Av Facundo Zuviría 6253",
                "telefono": "0342-4890670",
                "localidad": "Santa Fe"
            },
            "geometry": {
                "type": "Point",
                "coordinates": [-60.70409966408832, -31.608489878746877]
            }
        },
        {
            "type": "Feature",
            "properties": {
                "nombre": "Farmacia Stricker",
                "direccion": "Chacabuco 2116",
                "telefono": "0342-4539095",
                "localidad": "Santa Fe"
            },
            "geometry": {
                "type": "Point",
                "coordinates": [-60.69682122301906, -31.633948176675347]
            }
        },
        {
            "type": "Feature",
            "properties": {
                "nombre": "Farmacia Zapata Morán",
                "direccion": "Blas Parera 6751",
                "telefono": "0342-4891979",
                "localidad": "Santa Fe"
            },
            "geometry": {
                "type": "Point",
                "coordinates": [-60.72180537535643, -31.600089761549434]
            }
        },
        {
            "type": "Feature",
            "properties": {
                "nombre": "Farmacia Labath",
                "direccion": "Santiago del Estero 3142",
                "telefono": "0342-4555146",
                "localidad": "Santa Fe"
            },
            "geometry": {
                "type": "Point",
                "coordinates": [-60.711056486203425, -31.636199696298412]
            }
        },
        {
            "type": "Feature",
            "properties": {
                "nombre": "Farmacia Martinez",
                "direccion": "Av Galicia 1519",
                "telefono": "0342-4606375",
                "localidad": "Santa Fe"
            },
            "geometry": {
                "type": "Point",
                "coordinates": [-60.682430784186714, -31.60749635247314]
            }
        },
        {
            "type": "Feature",
            "properties": {
                "nombre": "Farmacia Mónica Wagner",
                "direccion": "Marcial Candioti 3899",
                "telefono": "0342-4522242",
                "localidad": "Santa Fe"
            },
            "geometry": {
                "type": "Point",
                "coordinates": [-60.69441433368125, -31.633541425195293]
            }
        },
        {
            "type": "Feature",
            "properties": {
                "nombre": "Farmacia Rita Martinez",
                "direccion": "Av Aristobulo del Valle 10479",
                "telefono": "0342-4694874",
                "localidad": "Santa Fe"
            },
            "geometry": {
                "type": "Point",
                "coordinates": [-60.69000338097957, -31.570497244039867]
            }
        },
        {
            "type": "Feature",
            "properties": {
                "nombre": "Farmacia Rojas Sotelo",
                "direccion": "Alvear 6303",
                "telefono": "0342-4607603",
                "localidad": "Santa Fe"
            },
            "geometry": {
                "type": "Point",
                "coordinates": [-60.68903680311939, -31.61145520851271]
            }
        },
        {
            "type": "Feature",
            "properties": {
                "nombre": "Farmacia Pescetti Maximiliano",
                "direccion": "Mendoza 2676",
                "telefono": "0342-4522928",
                "localidad": "Santa Fe"
            },
            "geometry": {
                "type": "Point",
                "coordinates": [-60.70829263785935, -31.648868483642314]
            }
        },
        {
            "type": "Feature",
            "properties": {
                "nombre": "Farmacia Scalzo",
                "direccion": "Gobernador Vera 3206",
                "telefono": "0342-4553083",
                "localidad": "Santa Fe"
            },
            "geometry": {
                "type": "Point",
                "coordinates": [-60.71350082772994, -31.64192561335349]
            }
        },
        {
            "type": "Feature",
            "properties": {
                "nombre": "Farmacia Vilarrubi",
                "direccion": "Av Peñaloza 7512",
                "telefono": "0342-4889996",
                "localidad": "Santa Fe"
            },
            "geometry": {
                "type": "Point",
                "coordinates": [-60.71198495226155, -31.59454529785101]
            }
        },
        {
            "type": "Feature",
            "properties": {
                "nombre": "Farmacia Imoberdof",
                "direccion": "Fray C Rodriguez 3889",
                "telefono": "0342-4884801",
                "localidad": "Santa Fe"
            },
            "geometry": {
                "type": "Point",
                "coordinates": [-60.71627000141176, -31.618397503842687]
            }
        },
        {
            "type": "Feature",
            "properties": {
                "nombre": "Farmacia Imvinkelried",
                "direccion": "Lavalle 4201",
                "telefono": "0342-4566576",
                "localidad": "Santa Fe"
            },
            "geometry": {
                "type": "Point",
                "coordinates": [-60.68827072434829, -31.631946953587075]
            }
        },
        {
            "type": "Feature",
            "properties": {
                "nombre": "Farmacia Mansilla",
                "direccion": "9 de Julio 1181",
                "telefono": "0342-4598798",
                "localidad": "Santa Fe"
            },
            "geometry": {
                "type": "Point",
                "coordinates": [-60.71369368296856, -31.66119220117026]
            }
        },
        {
            "type": "Feature",
            "properties": {
                "nombre": "Farmacia Menapace",
                "direccion": "Blas Parera 7831",
                "telefono": "0342-4890660",
                "localidad": "Santa Fe"
            },
            "geometry": {
                "type": "Point",
                "coordinates": [-60.72495483817265, -31.589476156979693]
            }
        },
        {
            "type": "Feature",
            "properties": {
                "nombre": "Farmacia Pescetti",
                "direccion": "P Genesio 1901",
                "telefono": "0342-4604447",
                "localidad": "Santa Fe"
            },
            "geometry": {
                "type": "Point",
                "coordinates": [-60.685022876602645, -31.601706177364875]
            }
        },
        {
            "type": "Feature",
            "properties": {
                "nombre": "Farmacia Wagner Burgués",
                "direccion": "Rivadavia 3098",
                "telefono": "0342-4561500",
                "localidad": "Santa Fe"
            },
            "geometry": {
                "type": "Point",
                "coordinates": [-60.702457629306906, -31.640609764009636]
            }
        },
        {
            "type": "Feature",
            "properties": {
                "nombre": "Farmacia Zentner",
                "direccion": "San Gerónimo 3101",
                "telefono": "0342-4532805",
                "localidad": "Santa Fe"
            },
            "geometry": {
                "type": "Point",
                "coordinates": [-60.706085638948466, -31.639736698607706]
            }
        },
        {
            "type": "Feature",
            "properties": {
                "direccion": "Ricchieri 3296",
                "nombre": "Farmacia Erica Tepp",
                "telefono": "474 1041",
                "localidad": "Santo Tome"
            },
            "geometry": {
                "type": "Point",
                "coordinates": [-60.7817688, -31.6857955]
            }
        },
        {
            "type": "Feature",
            "properties": {
                "direccion": "Av. 7 de Marzo 1882",
                "nombre": "Farmacia Stessens",
                "telefono": "474 3669",
                "localidad": "Santo Tome"
            },
            "geometry": {
                "type": "Point",
                "coordinates": [-60.7608077, -31.6669908]
            }
        },

        {
            "type": "Feature",
            "properties": {
                "direccion": "Av. Luján 2979",
                "nombre": "Farmacia Villata",
                "telefono": "474 3371",
                "localidad": "Santo Tome"
            },
            "geometry": {
                "type": "Point",
                "coordinates": [-60.7702598, -31.6745259]
            }
        },

        {
            "type": "Feature",
            "properties": {
                "direccion": "Av. 7 de Marzo 1527",
                "nombre": "Farmacia Escobar",
                "telefono": "474 0133",
                "localidad": "Santo Tome"
            },
            "geometry": {
                "type": "Point",
                "coordinates": [-60.7568673, -31.6674356]
            }
        },
        {
            "type": "Feature",
            "properties": {
                "direccion": "Hernandarias 1793",
                "nombre": "Farmacia Olivero",
                "telefono": "475 1075",
                "localidad": "Santo Tome"
            },
            "geometry": {
                "type": "Point",
                "coordinates": [-60.7607805, -31.6742095]
            }
        },
        {
            "type": "Feature",
            "properties": {
                "direccion": "Alberdi 2154",
                "nombre": "Farmacia Sauco",
                "telefono": "474 6180",
                "localidad": "Santo Tome"
            },
            "geometry": {
                "type": "Point",
                "coordinates": [-60.7670865, -31.6815499]
            }
        },
        {
            "type": "Feature",
            "properties": {
                "direccion": "25 de Mayo 1654",
                "nombre": "Farmacia Cirelli",
                "telefono": "474 0427",
                "localidad": "Santo Tome"
            },
            "geometry": {
                "type": "Point",
                "coordinates": [-60.7621055, -31.6621363]
            }
        },
        {
            "type": "Feature",
            "properties": {
                "direccion": "La Rioja 2295",
                "nombre": "Farmacia Gómez",
                "telefono": "475 3219",
                "localidad": "Santo Tome"
            },
            "geometry": {
                "type": "Point",
                "coordinates": [-60.7670069, -31.6743589]
            }
        },
        {
            "type": "Feature",
            "properties": {
                "direccion": "M.Candioti 3226",
                "nombre": "Farmacia Zimmermann",
                "telefono": "474 7279",
                "localidad": "Santo Tome"
            },
            "geometry": {
                "type": "Point",
                "coordinates": [-60.7567012, -31.6789138]
            }
        },
        {
            "type": "Feature",
            "properties": {
                "direccion": "Av.Luján 3636",
                "nombre": "Farmacia Marta Tepp",
                "telefono": "474 4804",
                "localidad": "Santo Tome"
            },
            "geometry": {
                "type": "Point",
                "coordinates": [-60.7747004, -31.6800996]
            }
        },
        {
            "type": "Feature",
            "properties": {
                "direccion": "Obispo Gelabert 2198",
                "nombre": "Farmacia Bonino",
                "telefono": "474 4484",
                "localidad": "Santo Tome"
            },
            "geometry": {
                "type": "Point",
                "coordinates": [-60.7634425, -31.6631545]
            }
        },

        {
            "type": "Feature",
            "properties": {
                "direccion": "H.Yrigoyen 2278",
                "nombre": "Farmacia Martínez",
                "telefono": "474 3995",
                "localidad": "Santo Tome"
            },
            "geometry": {
                "type": "Point",
                "coordinates": [-60.7639439, -31.6682866]
            }
        },
        {
            "type": "Feature",
            "properties": {
                "direccion": "Av .7 de Marzo 1760",
                "nombre": "Farmacia Pescetti J",
                "telefono": "474 0375",
                "localidad": "Santo Tome"
            },
            "geometry": {
                "type": "Point",
                "coordinates": [-60.7593549, -31.6671396]
            }
        },

        {
            "type": "Feature",
            "properties": {
                "direccion": "Ej.Argentino 2695",
                "nombre": "Farmacia Berta",
                "telefono": "474 9893",
                "localidad": "Santo Tome"
            },
            "geometry": {
                "type": "Point",
                "coordinates": [-60.7707336, -31.6725206]
            }
        },
        {
            "type": "Feature",
            "properties": {
                "direccion": "Mariano Candioti 2493",
                "nombre": "Farmacia Cruz",
                "telefono": "474 3501",
                "localidad": "Santo Tome"
            },
            "geometry": {
                "type": "Point",
                "coordinates": [-60.755361, -31.6722068]
            }
        },
        {
            "type": "Feature",
            "properties": {
                "direccion": "25 de Mayo 2017",
                "nombre": "Farmacia Mayoráz",
                "telefono": "474 7057",
                "localidad": "Santo Tome"
            },
            "geometry": {
                "type": "Point",
                "coordinates": [-60.7630673, -31.6654569]
            }
        },
        {
            "type": "Feature",
            "properties": {
                "direccion": "Av .7 de Marzo 2601",
                "nombre": "Farmacia Macagno",
                "telefono": "474 2196",
                "localidad": "Santo Tome"
            },
            "geometry": {
                "type": "Point",
                "coordinates": [-60.7685221, -31.6660866]
            }
        },
        {
            "type": "Feature",
            "properties": {
                "direccion": "M.Candioti 2801",
                "nombre": "Farmacia N.Caporizzo",
                "telefono": "474 5858",
                "localidad": "Santo Tome"
            },
            "geometry": {
                "type": "Point",
                "coordinates": [-60.7557747, -31.6750249]
            }
        },
        {
            "type": "Feature",
            "properties": {
                "direccion": "Av.Luján 2659",
                "nombre": "Farmacia Marcolini",
                "telefono": "474 1354",
                "localidad": "Santo Tome"
            },
            "geometry": {
                "type": "Point",
                "coordinates": [-60.767988, -31.6715788]
            }
        },
        {
            "type": "Feature",
            "properties": {
                "direccion": "Sarmiento 1776",
                "nombre": "Farmacia Contini",
                "telefono": "474 0422",
                "localidad": "Santo Tome"
            },
            "geometry": {
                "type": "Point",
                "coordinates": [-60.7585819, -31.6621242]
            }
        },
        {
            "type": "Feature",
            "properties": {
                "direccion": "7 de Marzo 2118",
                "nombre": "Farmacia San Roque",
                "telefono": "474 0466",
                "localidad": "Santo Tome"
            },
            "geometry": {
                "type": "Point",
                "coordinates": [-60.7632973, -31.6666989]
            }
        },
        {
            "type": "Feature",
            "properties": {
                "direccion": "Av.Luján 2468",
                "nombre": "Farmacia Mariana Gómez",
                "telefono": "474 2737",
                "localidad": "Santo Tome"
            },
            "geometry": {
                "type": "Point",
                "coordinates": [-60.7665944, -31.6697947]
            }
        },
        {
            "type": "Feature",
            "properties": {
                "direccion": "Sarmiento 2343",
                "nombre": "Farmacia Quassolo",
                "telefono": "474 7428",
                "localidad": "Santo Tome"
            },
            "geometry": {
                "type": "Point",
                "coordinates": [-60.7646717, -31.6612234]
            }
        },
        {
            "type": "Feature",
            "properties": {
                "direccion": "Belgrano 3018",
                "nombre": "Farmacia Terenzi",
                "telefono": "474 4371",
                "localidad": "Santo Tome"
            },
            "geometry": {
                "type": "Point",
                "coordinates": [-60.7630715, -31.6761309]
            }
        },
        {
            "type": "Feature",
            "properties": {
                "direccion": "Belgrano 3405",
                "nombre": "Farmacia Adrian Carrizo",
                "telefono": "474 1865",
                "localidad": "Santo Tome"
            },
            "geometry": {
                "type": "Point",
                "coordinates": [-60.7636816, -31.6792904]
            }
        },
        {
            "type": "Feature",
            "properties": {
                "direccion": "25 de Mayo 1878",
                "nombre": "Farmacia Firmani",
                "telefono": "474 4847",
                "localidad": "Santo Tome"
            },
            "geometry": {
                "type": "Point",
                "coordinates": [-60.7625297, -31.6640733]
            }
        },
        {
            "type": "Feature",
            "properties": {
                "direccion": "Mariano Candioti 3677",
                "nombre": "Farmacia Palacin",
                "telefono": "4741674",
                "localidad": "Santo Tome"
            },
            "geometry": {
                "type": "Point",
                "coordinates": [-60.7575749, -31.6831116]
            }
        }


    ]
}